{
  "data": [
    {
      "number": 1,
      "id": "edae72fb-0aba-11e6-9f03-122186ee",
      "name": "基隆數位學院",
      "latitude": "25.1284585",
      "longitude": "121.75334539999994",
      "address": "基隆市信義區信一路57號2樓",
      "phone": "02-24280933"
    },
    {
      "number": 2,
      "id": "02e91f5c-0abb-11e6-9f03-122186ee",
      "name": "台北數位旗艦店",
      "latitude": "25.046127",
      "longitude": "121.51265710000007",
      "address": "台北市開封街一段37號",
      "phone": "02-23610303"
    },
    {
      "number": 3,
      "id": "5a8f1364-0abb-11e6-9f03-122186ee",
      "name": "板橋數位學院",
      "latitude": "25.0079927",
      "longitude": "121.46010120000005",
      "address": "新北市板橋區中山路一段10號5樓",
      "phone": "02-89539911"
    },
    {
      "number": 4,
      "id": "7395d002-0abb-11e6-9f03-122186ee",
      "name": "南崁數位學院",
      "latitude": "25.0454566",
      "longitude": "121.29295079999997",
      "address": "桃園市蘆竹區中正路193號",
      "phone": "03-3525555"
    },
    {
      "number": 5,
      "id": "95008825-0abb-11e6-9f03-122186ee",
      "name": "竹北數位學院",
      "latitude": "24.8300484",
      "longitude": "121.00473139999997",
      "address": "新竹縣竹北市光明六路301之6號",
      "phone": "03-6570135"
    },
    {
      "number": 6,
      "id": "a6c21388-0abb-11e6-9f03-122186ee",
      "name": "新竹數位學院",
      "latitude": "24.8036398",
      "longitude": "120.97186480000005",
      "address": "新竹市民族路25號1F",
      "phone": "03-5255117"
    },
    {
      "number": 7,
      "id": "b91223dc-0abb-11e6-9f03-122186ee",
      "name": "苗栗數位學院",
      "latitude": "24.5701607",
      "longitude": "120.82329240000001",
      "address": "苗栗縣苗栗市為公路29號",
      "phone": "037-263778"
    },
    {
      "number": 8,
      "id": "d3fee396-0abb-11e6-9f03-122186ee",
      "name": "台中數位旗艦店",
      "latitude": "24.1364963",
      "longitude": "120.68305110000006",
      "address": "台中市中區民族路1號",
      "phone": "04-22200655"
    },
    {
      "number": 9,
      "id": "e527fd3a-0abb-11e6-9f03-122186ee",
      "name": "彰化數位學院",
      "latitude": "23.9594014",
      "longitude": "120.54328859999998",
      "address": "彰化縣和平路57號5樓",
      "phone": "047-200055"
    },
    {
      "number": 10,
      "id": "0a8f516a-0abc-11e6-9f03-122186ee",
      "name": "南投數位學院",
      "latitude": "23.9038626",
      "longitude": "120.688758",
      "address": "南投縣南投市大同南街43號",
      "phone": "049-2248727"
    },
    {
      "number": 11,
      "id": "2beceb04-0abc-11e6-9f03-122186ee",
      "name": "斗六數位學院",
      "latitude": "23.7118904",
      "longitude": "120.54238209999994",
      "address": "雲林縣斗六市民生路172號5樓",
      "phone": "05-5377088"
    },
    {
      "number": 12,
      "id": "5a2406df-0abc-11e6-9f03-122186ee",
      "name": "民雄數位學院",
      "latitude": "23.557034",
      "longitude": "120.43387099999995",
      "address": "嘉義縣民雄鄉東榮村建國路一段126號",
      "phone": "05-2061002"
    },
    {
      "number": 13,
      "id": "78697ba4-0abc-11e6-9f03-122186ee",
      "name": "太保數位學院",
      "latitude": "23.459255",
      "longitude": "120.29896400000007",
      "address": "嘉義縣太保市嘉朴東路一段78號1~4樓",
      "phone": "05-3628385"
    },
    {
      "number": 14,
      "id": "89a89c7d-0abc-11e6-9f03-122186ee",
      "name": "台南數位旗艦店",
      "latitude": "22.9975953",
      "longitude": "120.20916050000005",
      "address": "台南市中西區成功路49號",
      "phone": "06-2296641"
    },
    {
      "number": 15,
      "id": "9e7ff2d6-0abc-11e6-9f03-122186ee",
      "name": "高雄數位旗艦店",
      "latitude": "22.6359664",
      "longitude": "120.30124090000004",
      "address": "高雄市新興區八德二路17號",
      "phone": "07-2861111"
    },
    {
      "number": 16,
      "id": "c924484d-0abe-11e6-9f03-122186ee",
      "name": "東港數位學院",
      "latitude": "22.4720104",
      "longitude": "120.45573809999996",
      "address": "屏東縣東港鎮中正路一段115號1樓",
      "phone": "08-8350606"
    },
    {
      "number": 17,
      "id": "da702821-0abe-11e6-9f03-122186ee",
      "name": "羅東數位學院",
      "latitude": "24.6791876",
      "longitude": "121.77301139999997",
      "address": "宜蘭縣羅東鎮大同路27號",
      "phone": "03-9548995"
    },
    {
      "number": 18,
      "id": "eb77e578-0abe-11e6-9f03-122186ee",
      "name": "花蓮數位學院",
      "latitude": "23.9903924",
      "longitude": "121.60199130000001",
      "address": "花蓮縣花蓮市國聯一路133號",
      "phone": "03-8339231"
    },
    {
      "number": 19,
      "id": "fc5270f4-0abe-11e6-9f03-122186ee",
      "name": "台東數位學院",
      "latitude": "22.7626036",
      "longitude": "121.15780859999995",
      "address": "台東縣台東市中山路323巷8號",
      "phone": "089-343125"
    },
    {
      "number": 20,
      "id": "0baf0b86-0abf-11e6-9f03-122186ee",
      "name": "澎湖數位學院",
      "latitude": "23.5725475",
      "longitude": "119.57601840000007",
      "address": "澎湖縣馬公市陽明路2號4樓",
      "phone": "06-9266591"
    },
    {
      "number": 21,
      "id": "fe1f1443-0abf-11e6-9f03-122186ee",
      "name": "金門數位學院",
      "latitude": "24.4357434",
      "longitude": "118.31900109999992",
      "address": "金門縣金城鎮民生路43號9樓",
      "phone": "082-372555"
    }
  ]
}